t,x,y,z,vx,vy,vz,roll,pitch,yaw,mass,mach,thrust
0,0,0,0,668.830343,0,602.217546,0,0,0,22,2.64477197,0
0.005,3.34333936,0,3.00838026,668.5054,0,601.13456,0,0,0,22,2.64202305,0
0.01,6.68505402,0,6.01135285,668.180464,0,600.054475,0,0,0,22,2.63928063,0
0.015,10.025144,0,9.00893224,667.855536,0,598.977281,0,0,0,22,2.63654468,0
0.02,13.3636094,0,12.0011329,667.530618,0,597.90297,0,0,0,22,2.63381519,0
0.025,16.7004502,0,14.9879691,667.20571,0,596.831531,0,0,0,22,2.63109212,0
0.03,20.0356665,0,17.9694553,666.880815,0,595.762956,0,0,0,22,2.62837546,0
0.035,23.3692584,0,20.9456058,666.555935,0,594.697234,0,0,0,22,2.62566519,0
0.04,26.7012259,0,23.9164348,666.23107,0,593.634357,0,0,0,22,2.62296128,0
0.045,30.0315692,0,26.8819565,665.906222,0,592.574316,0,0,0,22,2.62026371,0
0.05,33.3602882,0,29.842185,665.581393,0,591.517101,0,0,0,22,2.61757246,0
0.055,36.6873831,0,32.7971345,665.256583,0,590.462703,0,0,0,22,2.61488751,0
0.06,40.0128541,0,35.7468191,664.931796,0,589.411114,0,0,0,22,2.61220884,0
0.065,43.3367011,0,38.6912527,664.607032,0,588.362323,0,0,0,22,2.60953642,0
0.07,46.6589245,0,41.6304493,664.282292,0,587.316321,0,0,0,22,2.60687024,0
0.075,49.9795241,0,44.5644228,663.957578,0,586.273101,0,0,0,22,2.60421026,0
0.08,53.2985003,0,47.4931872,663.632892,0,585.232652,0,0,0,22,2.60155648,0
0.085,56.6158531,0,50.4167563,663.308234,0,584.194966,0,0,0,22,2.59890887,0
0.09,59.9315827,0,53.3351438,662.983607,0,583.160034,0,0,0,22,2.59626742,0
0.095,63.2456893,0,56.2483635,662.659011,0,582.127847,0,0,0,22,2.59363208,0
0.1,66.5581729,0,59.1564291,662.334449,0,581.098395,0,0,0,22,2.59100286,0
0.105,69.8690338,0,62.0593542,662.00992,0,580.071671,0,0,0,22,2.58837972,0
0.11,73.1782722,0,64.9571526,661.685428,0,579.047666,0,0,0,22,2.58576265,0
0.115,76.4858882,0,67.8498377,661.360972,0,578.02637,0,0,0,22,2.58315163,0
0.12,79.791882,0,70.737423,661.036555,0,577.007775,0,0,0,22,2.58054663,0
0.125,83.0962539,0,73.6199221,660.712177,0,575.991872,0,0,0,22,2.57794763,0
0.13,86.3990039,0,76.4973485,660.387841,0,574.978653,0,0,0,22,2.57535462,0
0.135,89.7001324,0,79.3697154,660.063547,0,573.968109,0,0,0,22,2.57276758,0
0.14,92.9996395,0,82.2370362,659.739296,0,572.960231,0,0,0,22,2.57018648,0
0.145,96.2975255,0,85.0993243,659.415091,0,571.955011,0,0,0,22,2.5676113,0
0.15,99.5937905,0,87.9565929,659.090931,0,570.952441,0,0,0,22,2.56504202,0
0.155,102.888435,0,90.8088553,658.76682,0,569.952511,0,0,0,22,2.56247863,0
0.16,106.181459,0,93.6561246,658.442756,0,568.955213,0,0,0,22,2.5599211,0
0.165,109.472863,0,96.498414,658.118743,0,567.960539,0,0,0,22,2.55736942,0
0.17,112.762646,0,99.3357366,657.794781,0,566.968481,0,0,0,22,2.55482356,0
0.175,116.050811,0,102.168105,657.470871,0,565.979029,0,0,0,22,2.55228351,0
0.18,119.337355,0,104.995533,657.147015,0,564.992177,0,0,0,22,2.54974924,0
0.185,122.622281,0,107.818034,656.823214,0,564.007915,0,0,0,22,2.54722074,0
0.19,125.905588,0,110.635619,656.499469,0,563.026235,0,0,0,22,2.54469798,0
0.195,129.187276,0,113.448302,656.175781,0,562.047129,0,0,0,22,2.54218095,0
0.2,132.467345,0,116.256097,655.852151,0,561.070588,0,0,0,22,2.53966963,0
0.205,135.745797,0,119.059015,655.528581,0,560.096605,0,0,0,22,2.537164,0
0.21,139.022631,0,121.857069,655.205071,0,559.125172,0,0,0,22,2.53466404,0
0.215,142.297848,0,124.650273,654.881623,0,558.15628,0,0,0,22,2.53216972,0
0.22,145.571448,0,127.438638,654.558239,0,557.18992,0,0,0,22,2.52968104,0
0.225,148.843431,0,130.222178,654.234918,0,556.226086,0,0,0,22,2.52719798,0
0.23,152.113797,0,133.000905,653.911662,0,555.264769,0,0,0,22,2.5247205,0
0.235,155.382547,0,135.774832,653.588473,0,554.305962,0,0,0,22,2.5222486,0
0.24,158.649682,0,138.543971,653.265351,0,553.349655,0,0,0,22,2.51978226,0
0.245,161.915201,0,141.308335,652.942298,0,552.395841,0,0,0,22,2.51732146,0
0.25,165.179105,0,144.067936,652.619314,0,551.444513,0,0,0,22,2.51486617,0
0.255,168.441395,0,146.822786,652.296401,0,550.495662,0,0,0,22,2.51241639,0
0.26,171.702069,0,149.572899,651.97356,0,549.54928,0,0,0,22,2.50997209,0
0.265,174.96113,0,152.318285,651.650791,0,548.605361,0,0,0,22,2.50753325,0
0.27,178.218578,0,155.058958,651.328096,0,547.663895,0,0,0,22,2.50509986,0
0.275,181.474411,0,157.79493,651.005476,0,546.724875,0,0,0,22,2.5026719,0
0.28,184.728632,0,160.526213,650.682932,0,545.788294,0,0,0,22,2.50024935,0
0.285,187.981241,0,163.252819,650.360465,0,544.854143,0,0,0,22,2.49783219,0
0.29,191.232237,0,165.974761,650.038075,0,543.922416,0,0,0,22,2.4954204,0
0.295,194.481622,0,168.69205,649.715765,0,542.993104,0,0,0,22,2.49301397,0
0.3,197.729395,0,171.404698,649.393534,0,542.0662,0,0,0,22,2.49061288,0
0.305,200.975557,0,174.112718,649.071384,0,541.141696,0,0,0,22,2.48821711,0
0.31,204.220109,0,176.816121,648.749316,0,540.219585,0,0,0,22,2.48582665,0
0.315,207.463051,0,179.514919,648.427331,0,539.299858,0,0,0,22,2.48344147,0
0.32,210.704383,0,182.209125,648.10543,0,538.38251,0,0,0,22,2.48106155,0
0.325,213.944105,0,184.89875,647.783613,0,537.467532,0,0,0,22,2.47868689,0
0.33,217.182219,0,187.583806,647.461882,0,536.554916,0,0,0,22,2.47631746,0
0.335,220.418724,0,190.264305,647.140238,0,535.644656,0,0,0,22,2.47395325,0
0.34,223.653622,0,192.940259,646.818681,0,534.736743,0,0,0,22,2.47159424,0
0.345,226.886911,0,195.611679,646.497213,0,533.831172,0,0,0,22,2.46924041,0
0.35,230.118594,0,198.278576,646.175834,0,532.927933,0,0,0,22,2.46689174,0
0.355,233.34867,0,200.940964,645.854545,0,532.027021,0,0,0,22,2.46454822,0
0.36,236.57714,0,203.598852,645.533348,0,531.128427,0,0,0,22,2.46220983,0
0.365,239.804004,0,206.252254,645.212243,0,530.232144,0,0,0,22,2.45987656,0
0.37,243.029262,0,208.90118,644.89123,0,529.338166,0,0,0,22,2.45754838,0
0.375,246.252916,0,211.545641,644.570312,0,528.446484,0,0,0,22,2.45522528,0
0.38,249.474966,0,214.18565,644.249488,0,527.557093,0,0,0,22,2.45290725,0
0.385,252.695411,0,216.821218,643.928759,0,526.669984,0,0,0,22,2.45059426,0
0.39,255.914254,0,219.452356,643.608128,0,525.785151,0,0,0,22,2.4482863,0
0.395,259.131493,0,222.079075,643.287593,0,524.902586,0,0,0,22,2.44598336,0
0.4,262.34713,0,224.701387,642.967157,0,524.022282,0,0,0,22,2.44368542,0
0.405,265.561165,0,227.319304,642.646819,0,523.144233,0,0,0,22,2.44139245,0
0.41,268.773598,0,229.932835,642.326581,0,522.268432,0,0,0,22,2.43910445,0
0.415,271.984431,0,232.541993,642.006444,0,521.39487,0,0,0,22,2.4368214,0
0.42,275.193663,0,235.14679,641.686408,0,520.523543,0,0,0,22,2.43454329,0
0.425,278.401295,0,237.747234,641.366475,0,519.654441,0,0,0,22,2.43227008,0
0.43,281.607328,0,240.343339,641.046644,0,518.78756,0,0,0,22,2.43000178,0
0.435,284.811762,0,242.935116,640.726917,0,517.922891,0,0,0,22,2.42773837,0
0.44,288.014597,0,245.522574,640.407295,0,517.060427,0,0,0,22,2.42547982,0
0.445,291.215835,0,248.105725,640.087778,0,516.200163,0,0,0,22,2.42322612,0
0.45,294.415475,0,250.684581,639.768368,0,515.342091,0,0,0,22,2.42097726,0
0.455,297.613519,0,253.259152,639.449064,0,514.486205,0,0,0,22,2.41873323,0
0.46,300.809966,0,255.829449,639.129868,0,513.632497,0,0,0,22,2.41649399,0
0.465,304.004818,0,258.395482,638.81078,0,512.780961,0,0,0,22,2.41425955,0
0.47,307.198074,0,260.957264,638.491802,0,511.931591,0,0,0,22,2.41202988,0
0.475,310.389736,0,263.514803,638.172933,0,511.084379,0,0,0,22,2.40980497,0
0.48,313.579804,0,266.068113,637.854175,0,510.239319,0,0,0,22,2.40758481,0
0.485,316.768278,0,268.617202,637.535528,0,509.396405,0,0,0,22,2.40536937,0
0.49,319.955159,0,271.162082,637.216993,0,508.555629,0,0,0,22,2.40315864,0
0.495,323.140448,0,273.702764,636.898571,0,507.716985,0,0,0,22,2.40095261,0
0.5,326.324145,0,276.239257,636.580263,0,506.880467,0,0,0,22,2.39875127,0
0.505,329.506251,0,278.771574,636.262069,0,506.046068,0,0,0,22,2.39655459,0
0.51,332.686766,0,281.299723,635.94399,0,505.213781,0,0,0,22,2.39436256,0
0.515,335.865691,0,283.823717,635.626026,0,504.383601,0,0,0,22,2.39217517,0
0.52,339.043027,0,286.343564,635.308178,0,503.55552,0,0,0,22,2.38999241,0
0.525,342.218774,0,288.859277,634.990448,0,502.729532,0,0,0,22,2.38781425,0
0.53,345.392932,0,291.370865,634.672835,0,501.905631,0,0,0,22,2.38564068,0
0.535,348.565502,0,293.878339,634.35534,0,501.08381,0,0,0,22,2.38347169,0
0.54,351.736485,0,296.381708,634.037964,0,500.264064,0,0,0,22,2.38130726,0
0.545,354.905882,0,298.880984,633.720708,0,499.446385,0,0,0,22,2.37914738,0
0.55,358.073693,0,301.376177,633.403572,0,498.630767,0,0,0,22,2.37699204,0
0.555,361.239918,0,303.867297,633.086557,0,497.817205,0,0,0,22,2.37484121,0
0.56,364.404559,0,306.354354,632.769663,0,497.005691,0,0,0,22,2.37269489,0
0.565,367.567615,0,308.837359,632.452892,0,496.19622,0,0,0,22,2.37055306,0
0.57,370.729088,0,311.316322,632.136243,0,495.388786,0,0,0,22,2.36841571,0
0.575,373.888978,0,313.791252,631.819718,0,494.583381,0,0,0,22,2.36628282,0
0.58,377.047285,0,316.262161,631.503317,0,493.78,0,0,0,22,2.36415437,0
0.585,380.204011,0,318.729057,631.18704,0,492.978637,0,0,0,22,2.36203036,0
0.59,383.359156,0,321.191952,630.870889,0,492.179286,0,0,0,22,2.35991076,0
0.595,386.512721,0,323.650855,630.554863,0,491.38194,0,0,0,22,2.35779558,0
0.6,389.664705,0,326.105776,630.238964,0,490.586594,0,0,0,22,2.35568478,0
0.605,392.81511,0,328.556726,629.923191,0,489.793241,0,0,0,22,2.35357836,0
0.61,395.963937,0,331.003714,629.607547,0,489.001876,0,0,0,22,2.3514763,0
0.615,399.111186,0,333.44675,629.29203,0,488.212492,0,0,0,22,2.34937859,0
0.62,402.256858,0,335.885844,628.976642,0,487.425083,0,0,0,22,2.34728522,0
0.625,405.400953,0,338.321005,628.661384,0,486.639644,0,0,0,22,2.34519616,0
0.63,408.543472,0,340.752245,628.346255,0,485.856167,0,0,0,22,2.34311142,0
0.635,411.684416,0,343.179572,628.031257,0,485.074649,0,0,0,22,2.34103097,0
0.64,414.823785,0,345.602996,627.716389,0,484.295082,0,0,0,22,2.3389548,0
0.645,417.96158,0,348.022528,627.401654,0,483.517461,0,0,0,22,2.3368829,0
0.65,421.097802,0,350.438176,627.08705,0,482.741779,0,0,0,22,2.33481525,0
0.655,424.232451,0,352.84995,626.772578,0,481.968032,0,0,0,22,2.33275184,0
0.66,427.365528,0,355.257861,626.45824,0,481.196212,0,0,0,22,2.33069266,0
0.665,430.497034,0,357.661917,626.144036,0,480.426315,0,0,0,22,2.32863769,0
0.67,433.626969,0,360.062129,625.829966,0,479.658334,0,0,0,22,2.32658692,0
0.675,436.755334,0,362.458505,625.51603,0,478.892265,0,0,0,22,2.32454034,0
0.68,439.882129,0,364.851056,625.202229,0,478.1281,0,0,0,22,2.32249793,0
0.685,443.007356,0,367.239791,624.888565,0,477.365834,0,0,0,22,2.32045968,0
0.69,446.131015,0,369.624719,624.575036,0,476.605463,0,0,0,22,2.31842558,0
0.695,449.253107,0,372.005851,624.261644,0,475.846979,0,0,0,22,2.31639561,0
0.7,452.373632,0,374.383194,623.948389,0,475.090377,0,0,0,22,2.31436976,0
0.705,455.492591,0,376.756759,623.635272,0,474.335652,0,0,0,22,2.31234803,0
0.71,458.609985,0,379.126555,623.322294,0,473.582798,0,0,0,22,2.31033038,0
0.715,461.725815,0,381.492592,623.009453,0,472.83181,0,0,0,22,2.30831682,0
0.72,464.84008,0,383.854878,622.696752,0,472.082681,0,0,0,22,2.30630733,0
0.725,467.952782,0,386.213423,622.384191,0,471.335407,0,0,0,22,2.3043019,0
0.73,471.063922,0,388.568237,622.071769,0,470.589981,0,0,0,22,2.30230051,0
0.735,474.1735,0,390.919327,621.759488,0,469.846399,0,0,0,22,2.30030316,0
0.74,477.281518,0,393.266705,621.447349,0,469.104654,0,0,0,22,2.29830982,0
0.745,480.387974,0,395.610379,621.13535,0,468.364742,0,0,0,22,2.29632049,0
0.75,483.492871,0,397.950357,620.823493,0,467.626657,0,0,0,22,2.29433515,0
0.755,486.59621,0,400.28665,620.511779,0,466.890392,0,0,0,22,2.29235379,0
0.76,489.69799,0,402.619266,620.200207,0,466.155944,0,0,0,22,2.29037641,0
0.765,492.798212,0,404.948214,619.888779,0,465.423307,0,0,0,22,2.28840298,0
0.77,495.896878,0,407.273503,619.577494,0,464.692474,0,0,0,22,2.2864335,0
0.775,498.993987,0,409.595143,619.266354,0,463.963442,0,0,0,22,2.28446794,0
0.78,502.089542,0,411.913142,618.955357,0,463.236203,0,0,0,22,2.28250631,0
0.785,505.183541,0,414.227509,618.644506,0,462.510754,0,0,0,22,2.28054859,0
0.79,508.275987,0,416.538254,618.3338,0,461.787089,0,0,0,22,2.27859476,0
0.795,511.36688,0,418.845385,618.02324,0,461.065203,0,0,0,22,2.27664481,0
0.8,514.45622,0,421.148911,617.712826,0,460.34509,0,0,0,22,2.27469874,0
0.805,517.544008,0,423.44884,617.402558,0,459.626744,0,0,0,22,2.27275653,0
0.81,520.630246,0,425.745182,617.092438,0,458.910162,0,0,0,22,2.27081816,0
0.815,523.714933,0,428.037946,616.782464,0,458.195337,0,0,0,22,2.26888363,0
0.82,526.798071,0,430.32714,616.472639,0,457.482265,0,0,0,22,2.26695293,0
0.825,529.87966,0,432.612773,616.162962,0,456.77094,0,0,0,22,2.26502603,0
0.83,532.959701,0,434.894854,615.853433,0,456.061357,0,0,0,22,2.26310294,0
0.835,536.038194,0,437.173391,615.544053,0,455.353512,0,0,0,22,2.26118364,0
0.84,539.115142,0,439.448393,615.234822,0,454.647398,0,0,0,22,2.25926811,0
0.845,542.190543,0,441.719869,614.925741,0,453.943011,0,0,0,22,2.25735635,0
0.85,545.264399,0,443.987828,614.61681,0,453.240345,0,0,0,22,2.25544834,0
0.855,548.336712,0,446.252277,614.308029,0,452.539396,0,0,0,22,2.25354408,0
0.86,551.40748,0,448.513226,613.999399,0,451.840159,0,0,0,22,2.25164354,0
0.865,554.476706,0,450.770683,613.69092,0,451.142629,0,0,0,22,2.24974673,0
0.87,557.54439,0,453.024657,613.382592,0,450.446799,0,0,0,22,2.24785362,0
0.875,560.610532,0,455.275155,613.074417,0,449.752667,0,0,0,22,2.24596421,0
0.88,563.675134,0,457.522187,612.766393,0,449.060226,0,0,0,22,2.24407849,0
0.885,566.738196,0,459.765762,612.458522,0,448.369472,0,0,0,22,2.24219644,0
0.89,569.79972,0,462.005886,612.150804,0,447.6804,0,0,0,22,2.24031805,0
0.895,572.859705,0,464.24257,611.843239,0,446.993004,0,0,0,22,2.23844331,0
0.9,575.918153,0,466.475821,611.535827,0,446.30728,0,0,0,22,2.23657222,0
0.905,578.975064,0,468.705647,611.228569,0,445.623224,0,0,0,22,2.23470475,0
0.91,582.030439,0,470.932057,610.921466,0,444.940829,0,0,0,22,2.23284091,0
0.915,585.084279,0,473.155059,610.614517,0,444.260092,0,0,0,22,2.23098067,0
0.92,588.136584,0,475.374662,610.307722,0,443.581007,0,0,0,22,2.22912402,0
0.925,591.187356,0,477.590873,610.001083,0,442.90357,0,0,0,22,2.22727096,0
0.93,594.236595,0,479.803702,609.694599,0,442.227776,0,0,0,22,2.22542148,0
0.935,597.284303,0,482.013155,609.388271,0,441.55362,0,0,0,22,2.22357556,0
0.94,600.330479,0,484.219242,609.082099,0,440.881097,0,0,0,22,2.22173319,0
0.945,603.375124,0,486.42197,608.776084,0,440.210203,0,0,0,22,2.21989437,0
0.95,606.41824,0,488.621348,608.470225,0,439.540932,0,0,0,22,2.21805908,0
0.955,609.459827,0,490.817384,608.164523,0,438.873281,0,0,0,22,2.2162273,0
0.96,612.499885,0,493.010085,607.858978,0,438.207244,0,0,0,22,2.21439904,0
0.965,615.538417,0,495.19946,607.553591,0,437.542818,0,0,0,22,2.21257428,0
0.97,618.575422,0,497.385517,607.248362,0,436.879996,0,0,0,22,2.210753,0
0.975,621.610901,0,499.568264,606.94329,0,436.218774,0,0,0,22,2.20893521,0
0.98,624.644855,0,501.747709,606.638377,0,435.559149,0,0,0,22,2.20712088,0
0.985,627.677285,0,503.92386,606.333623,0,434.901114,0,0,0,22,2.20531001,0
0.99,630.708192,0,506.096724,606.029028,0,434.244667,0,0,0,22,2.20350259,0
0.995,633.737576,0,508.26631,605.724592,0,433.589801,0,0,0,22,2.2016986,0
1,636.765438,0,510.432626,605.420315,0,432.936513,0,0,0,22,2.19989804,0
1.005,639.791779,0,512.595679,605.116198,0,432.284797,0,0,0,22,2.1981009,0
1.01,642.8166,0,514.755478,604.812241,0,431.63465,0,0,0,22,2.19630716,0
1.015,645.839902,0,516.91203,604.508445,0,430.986067,0,0,0,22,2.19451682,0
1.02,648.861685,0,519.065342,604.204809,0,430.339044,0,0,0,22,2.19272986,0
1.025,651.881951,0,521.215424,603.901334,0,429.693575,0,0,0,22,2.19094628,0
1.03,654.900699,0,523.362282,603.598019,0,429.049656,0,0,0,22,2.18916606,0
1.035,657.917931,0,525.505924,603.294866,0,428.407284,0,0,0,22,2.1873892,0
1.04,660.933648,0,527.646359,602.991875,0,427.766453,0,0,0,22,2.18561568,0
1.045,663.94785,0,529.783593,602.689046,0,427.127159,0,0,0,22,2.1838455,0
1.05,666.960539,0,531.917634,602.386378,0,426.489398,0,0,0,22,2.18207864,0
1.055,669.971714,0,534.048491,602.083873,0,425.853165,0,0,0,22,2.1803151,0
1.06,672.981378,0,536.17617,601.78153,0,425.218456,0,0,0,22,2.17855487,0
1.065,675.98953,0,538.300679,601.47935,0,424.585267,0,0,0,22,2.17679793,0
1.07,678.996172,0,540.422026,601.177333,0,423.953593,0,0,0,22,2.17504427,0
1.075,682.001304,0,542.540219,600.875479,0,423.323429,0,0,0,22,2.17329389,0
1.08,685.004927,0,544.655264,600.573788,0,422.694773,0,0,0,22,2.17154678,0
1.085,688.007042,0,546.76717,600.272261,0,422.067618,0,0,0,22,2.16980292,0
1.09,691.00765,0,548.875944,599.970898,0,421.441962,0,0,0,22,2.16806231,0
1.095,694.006752,0,550.981594,599.669699,0,420.817799,0,0,0,22,2.16632494,0
1.1,697.004347,0,553.084126,599.368664,0,420.195126,0,0,0,22,2.1645908,0
1.105,700.000439,0,555.183548,599.067794,0,419.573937,0,0,0,22,2.16285987,0
1.11,702.995026,0,557.279869,598.767089,0,418.95423,0,0,0,22,2.16113215,0
1.115,705.98811,0,559.373094,598.466548,0,418.336,0,0,0,22,2.15940764,0
1.12,708.979692,0,561.463233,598.166173,0,417.719242,0,0,0,22,2.15768631,0
1.125,711.969772,0,563.550291,597.865962,0,417.103952,0,0,0,22,2.15596816,0
1.13,714.958352,0,565.634276,597.565918,0,416.490127,0,0,0,22,2.15425318,0
1.135,717.945432,0,567.715196,597.266039,0,415.877762,0,0,0,22,2.15254136,0
1.14,720.931013,0,569.793057,596.966326,0,415.266853,0,0,0,22,2.1508327,0
1.145,723.915095,0,571.867868,596.666779,0,414.657395,0,0,0,22,2.14912718,0
1.15,726.897681,0,573.939635,596.367398,0,414.049385,0,0,0,22,2.14742479,0
1.155,729.87877,0,576.008365,596.068184,0,413.442819,0,0,0,22,2.14572553,0
1.16,732.858363,0,578.074066,595.769136,0,412.837692,0,0,0,22,2.14402938,0
1.165,735.836462,0,580.136746,595.470255,0,412.234001,0,0,0,22,2.14233634,0
1.17,738.813066,0,582.19641,595.171542,0,411.631741,0,0,0,22,2.1406464,0
1.175,741.788177,0,584.253067,594.872995,0,411.030908,0,0,0,22,2.13895954,0
1.18,744.761796,0,586.306723,594.574616,0,410.431499,0,0,0,22,2.13727577,0
1.185,747.733924,0,588.357385,594.276404,0,409.833509,0,0,0,22,2.13559506,0
1.19,750.704561,0,590.405061,593.97836,0,409.236934,0,0,0,22,2.13391741,0
1.195,753.673708,0,592.449758,593.680484,0,408.641771,0,0,0,22,2.13224282,0
1.2,756.641366,0,594.491482,593.382776,0,408.048015,0,0,0,22,2.13057127,0
1.205,759.607536,0,596.530242,593.085237,0,407.455662,0,0,0,22,2.12890275,0
1.21,762.572219,0,598.566043,592.787865,0,406.864708,0,0,0,22,2.12723726,0
1.215,765.535415,0,600.598892,592.490662,0,406.275151,0,0,0,22,2.12557479,0
1.22,768.497126,0,602.628798,592.193628,0,405.686984,0,0,0,22,2.12391533,0
1.225,771.457352,0,604.655766,591.896763,0,405.100206,0,0,0,22,2.12225886,0
1.23,774.416094,0,606.679803,591.600066,0,404.514811,0,0,0,22,2.12060538,0
1.235,777.373353,0,608.700917,591.303539,0,403.930796,0,0,0,22,2.11895489,0
1.24,780.32913,0,610.719115,591.007181,0,403.348157,0,0,0,22,2.11730737,0
1.245,783.283425,0,612.734402,590.710993,0,402.76689,0,0,0,22,2.11566281,0
1.25,786.23624,0,614.746787,590.414974,0,402.186992,0,0,0,22,2.11402121,0
1.255,789.187575,0,616.756275,590.119124,0,401.608458,0,0,0,22,2.11238256,0
1.26,792.137432,0,618.762875,589.823445,0,401.031285,0,0,0,22,2.11074685,0
1.265,795.08581,0,620.766592,589.527936,0,400.455469,0,0,0,22,2.10911406,0
1.27,798.032712,0,622.767433,589.232597,0,399.881006,0,0,0,22,2.1074842,0
1.275,800.978137,0,624.765405,588.937428,0,399.307892,0,0,0,22,2.10585726,0
1.28,803.922086,0,626.760515,588.642429,0,398.736124,0,0,0,22,2.10423322,0
1.285,806.864561,0,628.75277,588.347601,0,398.165697,0,0,0,22,2.10261207,0
1.29,809.805563,0,630.742175,588.052944,0,397.596609,0,0,0,22,2.10099381,0
1.295,812.745091,0,632.728739,587.758457,0,397.028855,0,0,0,22,2.09937844,0
1.3,815.683148,0,634.712467,587.464142,0,396.462432,0,0,0,22,2.09776593,0
1.305,818.619733,0,636.693367,587.169997,0,395.897336,0,0,0,22,2.09615629,0
1.31,821.554848,0,638.671444,586.876024,0,395.333563,0,0,0,22,2.09454951,0
1.315,824.488494,0,640.646706,586.582222,0,394.77111,0,0,0,22,2.09294557,0
1.32,827.420671,0,642.619158,586.288591,0,394.209972,0,0,0,22,2.09134447,0
1.325,830.35138,0,644.588809,585.995132,0,393.650147,0,0,0,22,2.08974621,0
1.33,833.280623,0,646.555663,585.701844,0,393.091631,0,0,0,22,2.08815076,0
1.335,836.208399,0,648.519728,585.408728,0,392.534419,0,0,0,22,2.08655813,0
1.34,839.13471,0,650.481011,585.115784,0,391.978509,0,0,0,22,2.08496831,0
1.345,842.059557,0,652.439517,584.823012,0,391.423897,0,0,0,22,2.08338129,0
1.35,844.982941,0,654.395253,584.530412,0,390.870579,0,0,0,22,2.08179705,0
1.355,847.904862,0,656.348226,584.237984,0,390.318552,0,0,0,22,2.08021561,0
1.36,850.825321,0,658.298442,583.945729,0,389.767812,0,0,0,22,2.07863693,0
1.365,853.744319,0,660.245907,583.653645,0,389.218356,0,0,0,22,2.07706102,0
1.37,856.661858,0,662.190628,583.361735,0,388.670179,0,0,0,22,2.07548788,0
1.375,859.577937,0,664.132612,583.069996,0,388.123279,0,0,0,22,2.07391748,0
1.38,862.492558,0,666.071864,582.778431,0,387.577652,0,0,0,22,2.07234983,0
1.385,865.405722,0,668.008392,582.487038,0,387.033295,0,0,0,22,2.07078491,0
1.39,868.317429,0,669.9422,582.195818,0,386.490203,0,0,0,22,2.06922272,0
1.395,871.227681,0,671.873297,581.904771,0,385.948374,0,0,0,22,2.06766326,0
1.4,874.136477,0,673.801687,581.613897,0,385.407804,0,0,0,22,2.0661065,0
1.405,877.04382,0,675.727378,581.323196,0,384.86849,0,0,0,22,2.06455245,0
1.41,879.94971,0,677.650375,581.032668,0,384.330428,0,0,0,22,2.0630011,0
1.415,882.854147,0,679.570685,580.742314,0,383.793614,0,0,0,22,2.06145244,0
1.42,885.757133,0,681.488315,580.452132,0,383.258046,0,0,0,22,2.05990646,0
1.425,888.658669,0,683.403269,580.162125,0,382.723719,0,0,0,22,2.05836315,0
1.43,891.558755,0,685.315555,579.872291,0,382.190631,0,0,0,22,2.05682252,0
1.435,894.457392,0,687.225178,579.58263,0,381.658779,0,0,0,22,2.05528454,0
1.44,897.354582,0,689.132146,579.293143,0,381.128157,0,0,0,22,2.05374921,0
1.445,900.250324,0,691.036463,579.00383,0,380.598765,0,0,0,22,2.05221653,0
1.45,903.14462,0,692.938136,578.71469,0,380.070597,0,0,0,22,2.05068649,0
1.455,906.037471,0,694.837172,578.425725,0,379.543651,0,0,0,22,2.04915907,0
1.46,908.928878,0,696.733576,578.136933,0,379.017923,0,0,0,22,2.04763428,0
1.465,911.818841,0,698.627354,577.848316,0,378.49341,0,0,0,22,2.04611211,0
1.47,914.707362,0,700.518513,577.559872,0,377.970109,0,0,0,22,2.04459254,0
1.475,917.59444,0,702.407058,577.271603,0,377.448016,0,0,0,22,2.04307558,0
1.48,920.480078,0,704.292996,576.983508,0,376.927129,0,0,0,22,2.0415612,0
1.485,923.364276,0,706.176333,576.695587,0,376.407443,0,0,0,22,2.04004942,0
1.49,926.247034,0,708.057074,576.40784,0,375.888956,0,0,0,22,2.03854021,0
1.495,929.128355,0,709.935225,576.120268,0,375.371664,0,0,0,22,2.03703357,0
1.5,932.008238,0,711.810793,575.83287,0,374.855564,0,0,0,22,2.0355295,0
1.505,934.886684,0,713.683784,575.545647,0,374.340653,0,0,0,22,2.03402799,0
1.51,937.763694,0,715.554203,575.258598,0,373.826927,0,0,0,22,2.03252903,0
1.515,940.63927,0,717.422056,574.971724,0,373.314384,0,0,0,22,2.03103261,0
1.52,943.513412,0,719.28735,574.685025,0,372.80302,0,0,0,22,2.02953873,0
1.525,946.386121,0,721.150089,574.3985,0,372.292833,0,0,0,22,2.02804737,0
1.53,949.257398,0,723.010281,574.11215,0,371.783818,0,0,0,22,2.02655854,0
1.535,952.127243,0,724.86793,573.825975,0,371.275972,0,0,0,22,2.02507223,0
1.54,954.995658,0,726.723044,573.539975,0,370.769293,0,0,0,22,2.02358842,0
1.545,957.862643,0,728.575626,573.25415,0,370.263778,0,0,0,22,2.02210712,0
1.55,960.7282,0,730.425684,572.968499,0,369.759422,0,0,0,22,2.02062831,0
1.555,963.592329,0,732.273223,572.683024,0,369.256224,0,0,0,22,2.01915198,0
1.56,966.45503,0,734.118249,572.397723,0,368.75418,0,0,0,22,2.01767814,0
1.565,969.316306,0,735.960768,572.112598,0,368.253286,0,0,0,22,2.01620677,0
1.57,972.176157,0,737.800785,571.827648,0,367.753541,0,0,0,22,2.01473787,0
1.575,975.034583,0,739.638306,571.542872,0,367.25494,0,0,0,22,2.01327143,0
1.58,977.891586,0,741.473337,571.258272,0,366.75748,0,0,0,22,2.01180745,0
1.585,980.747166,0,743.305884,570.973848,0,366.261159,0,0,0,22,2.01034591,0
1.59,983.601325,0,745.135952,570.689598,0,365.765974,0,0,0,22,2.00888681,0
1.595,986.454063,0,746.963546,570.405524,0,365.271921,0,0,0,22,2.00743014,0
1.6,989.305381,0,748.788674,570.121625,0,364.778997,0,0,0,22,2.00597591,0
1.605,992.155279,0,750.611339,569.837901,0,364.2872,0,0,0,22,2.00452409,0
1.61,995.00376,0,752.431549,569.554353,0,363.796526,0,0,0,22,2.00307468,0
1.615,997.850823,0,754.249307,569.27098,0,363.306973,0,0,0,22,2.00162769,0
1.62,1000.69647,0,756.064621,568.987782,0,362.818536,0,0,0,22,2.00018309,0
1.625,1003.5407,0,757.877495,568.70476,0,362.331214,0,0,0,22,1.99874089,0
1.63,1006.38352,0,759.687936,568.421814,0,361.84494,0,0,0,22,1.99730072,0
1.635,1009.22492,0,761.495947,568.138929,0,361.359702,0,0,0,22,1.99586254,0
1.64,1012.06491,0,763.301535,567.856106,0,360.875497,0,0,0,22,1.99442633,0
1.645,1014.90348,0,765.104705,567.573346,0,360.392324,0,0,0,22,1.99299209,0
1.65,1017.74064,0,766.905461,567.290649,0,359.91018,0,0,0,22,1.99155982,0
1.655,1020.57639,0,768.703809,567.008016,0,359.429062,0,0,0,22,1.99012952,0
1.66,1023.41072,0,770.499754,566.725447,0,358.948969,0,0,0,22,1.98870118,0
1.665,1026.24364,0,772.293302,566.442943,0,358.469898,0,0,0,22,1.98727479,0
1.67,1029.07515,0,774.084456,566.160505,0,357.991846,0,0,0,22,1.98585036,0
1.675,1031.90525,0,775.873223,565.878134,0,357.514811,0,0,0,22,1.98442787,0
1.68,1034.73393,0,777.659607,565.595828,0,357.038792,0,0,0,22,1.98300733,0
1.685,1037.56121,0,779.443613,565.31359,0,356.563785,0,0,0,22,1.98158873,0
1.69,1040.38707,0,781.225247,565.03142,0,356.089789,0,0,0,22,1.98017206,0
1.695,1043.21152,0,783.004513,564.749318,0,355.616801,0,0,0,22,1.97875733,0
1.7,1046.03456,0,784.781418,564.467285,0,355.144818,0,0,0,22,1.97734452,0
1.705,1048.85619,0,786.555964,564.185322,0,354.673839,0,0,0,22,1.97593364,0
1.71,1051.67642,0,788.328158,563.903428,0,354.203861,0,0,0,22,1.97452467,0
1.715,1054.49523,0,790.098005,563.621605,0,353.734882,0,0,0,22,1.97311763,0
1.72,1057.31263,0,791.86551,563.339853,0,353.2669,0,0,0,22,1.97171249,0
1.725,1060.12863,0,793.630677,563.058173,0,352.799912,0,0,0,22,1.97030926,0
1.73,1062.94321,0,795.393511,562.776564,0,352.333916,0,0,0,22,1.96890794,0
1.735,1065.75639,0,797.154018,562.495029,0,351.86891,0,0,0,22,1.96750852,0
1.74,1068.56816,0,798.912203,562.213566,0,351.404892,0,0,0,22,1.96611099,0
1.745,1071.37853,0,800.66807,561.932177,0,350.941859,0,0,0,22,1.96471535,0
1.75,1074.18749,0,802.421624,561.650862,0,350.479809,0,0,0,22,1.96332161,0
1.755,1076.99504,0,804.17287,561.369622,0,350.01874,0,0,0,22,1.96192974,0
1.76,1079.80118,0,805.921814,561.088457,0,349.558649,0,0,0,22,1.96053976,0
1.765,1082.60592,0,807.668459,560.807368,0,349.099535,0,0,0,22,1.95915166,0
1.77,1085.40926,0,809.412812,560.526355,0,348.641396,0,0,0,22,1.95776542,0
1.775,1088.21119,0,811.154876,560.245418,0,348.184228,0,0,0,22,1.95638106,0
1.78,1091.01171,0,812.894656,559.964559,0,347.72803,0,0,0,22,1.95499856,0
1.785,1093.81083,0,814.632158,559.683777,0,347.272799,0,0,0,22,1.95361792,0
1.79,1096.60855,0,816.367387,559.403074,0,346.818534,0,0,0,22,1.95223914,0
1.795,1099.40486,0,818.100346,559.122449,0,346.365232,0,0,0,22,1.95086221,0
1.8,1102.19977,0,819.831041,558.841903,0,345.912891,0,0,0,22,1.94948713,0
1.805,1104.99328,0,821.559477,558.561437,0,345.461509,0,0,0,22,1.9481139,0
1.81,1107.78539,0,823.285659,558.281051,0,345.011084,0,0,0,22,1.94674251,0
1.815,1110.57609,0,825.009591,558.000746,0,344.561613,0,0,0,22,1.94537295,0
1.82,1113.3654,0,826.731277,557.720521,0,344.113094,0,0,0,22,1.94400524,0
1.825,1116.1533,0,828.450724,557.440379,0,343.665525,0,0,0,22,1.94263935,0
1.83,1118.9398,0,830.167935,557.160318,0,343.218904,0,0,0,22,1.94127529,0
1.835,1121.7249,0,831.882915,556.880339,0,342.773229,0,0,0,22,1.93991305,0
1.84,1124.5086,0,833.59567,556.600443,0,342.328498,0,0,0,22,1.93855263,0
1.845,1127.29091,0,835.306203,556.320631,0,341.884708,0,0,0,22,1.93719403,0
1.85,1130.07181,0,837.014519,556.040902,0,341.441857,0,0,0,22,1.93583723,0
1.855,1132.85131,0,838.720624,555.761258,0,340.999944,0,0,0,22,1.93448225,0
1.86,1135.62942,0,840.424521,555.481699,0,340.558966,0,0,0,22,1.93312907,0
1.865,1138.40613,0,842.126216,555.202224,0,340.11892,0,0,0,22,1.93177769,0
1.87,1141.18144,0,843.825712,554.922835,0,339.679806,0,0,0,22,1.93042811,0
1.875,1143.95536,0,845.523016,554.643532,0,339.24162,0,0,0,22,1.92908033,0
1.88,1146.72788,0,847.218131,554.364316,0,338.804361,0,0,0,22,1.92773433,0
1.885,1149.499,0,848.911062,554.085187,0,338.368026,0,0,0,22,1.92639011,0
1.89,1152.26873,0,850.601814,553.806144,0,337.932614,0,0,0,22,1.92504768,0
1.895,1155.03707,0,852.29039,553.52719,0,337.498122,0,0,0,22,1.92370703,0
1.9,1157.804,0,853.976797,553.248324,0,337.064549,0,0,0,22,1.92236816,0
1.905,1160.56955,0,855.661038,552.969546,0,336.631891,0,0,0,22,1.92103105,0
1.91,1163.3337,0,857.343118,552.690858,0,336.200148,0,0,0,22,1.91969572,0
1.915,1166.09646,0,859.023042,552.412258,0,335.769316,0,0,0,22,1.91836214,0
1.92,1168.85782,0,860.700814,552.133749,0,335.339395,0,0,0,22,1.91703033,0
1.925,1171.6178,0,862.376438,551.85533,0,334.910381,0,0,0,22,1.91570028,0
1.93,1174.37638,0,864.04992,551.577002,0,334.482273,0,0,0,22,1.91437197,0
1.935,1177.13357,0,865.721263,551.298765,0,334.055069,0,0,0,22,1.91304542,0
1.94,1179.88936,0,867.390473,551.020619,0,333.628767,0,0,0,22,1.91172062,0
1.945,1182.64377,0,869.057553,550.742565,0,333.203364,0,0,0,22,1.91039755,0
1.95,1185.39679,0,870.722509,550.464604,0,332.778859,0,0,0,22,1.90907623,0
1.955,1188.14842,0,872.385344,550.186735,0,332.355249,0,0,0,22,1.90775664,0
1.96,1190.89866,0,874.046063,549.908959,0,331.932533,0,0,0,22,1.90643879,0
1.965,1193.64751,0,875.704671,549.631277,0,331.510709,0,0,0,22,1.90512266,0
1.97,1196.39497,0,877.361173,549.353689,0,331.089774,0,0,0,22,1.90380826,0
1.975,1199.14105,0,879.015571,549.076195,0,330.669726,0,0,0,22,1.90249558,0
1.98,1201.88573,0,880.667872,548.798795,0,330.250564,0,0,0,22,1.90118462,0
1.985,1204.62903,0,882.318079,548.521491,0,329.832285,0,0,0,22,1.89987537,0
1.99,1207.37095,0,883.966197,548.244282,0,329.414888,0,0,0,22,1.89856783,0
1.995,1210.11148,0,885.61223,547.967169,0,328.99837,0,0,0,22,1.897262,0
2,1212.85062,0,887.256183,547.690152,0,328.58273,0,0,0,22,1.89595788,0
2.005,1215.58838,0,888.89806,547.413232,0,328.167965,0,0,0,22,1.89465546,0
2.01,1218.32475,0,890.537865,547.136408,0,327.754074,0,0,0,22,1.89335473,0
2.015,1221.05974,0,892.175603,546.859682,0,327.341054,0,0,0,22,1.8920557,0
2.02,1223.79335,0,893.811278,546.583054,0,326.928904,0,0,0,22,1.89075836,0
2.025,1226.52557,0,895.444894,546.306523,0,326.517621,0,0,0,22,1.8894627,0
2.03,1229.25642,0,897.076456,546.030091,0,326.107204,0,0,0,22,1.88816873,0
2.035,1231.98587,0,898.705968,545.753758,0,325.697651,0,0,0,22,1.88687644,0
2.04,1234.71395,0,900.333435,545.477524,0,325.288959,0,0,0,22,1.88558583,0
2.045,1237.44065,0,901.95886,545.201389,0,324.881127,0,0,0,22,1.88429689,0
2.05,1240.16597,0,903.582248,544.925354,0,324.474153,0,0,0,22,1.88300962,0
2.055,1242.8899,0,905.203604,544.649419,0,324.068035,0,0,0,22,1.88172402,0
2.06,1245.61246,0,906.822931,544.373585,0,323.662771,0,0,0,22,1.88044008,0
2.065,1248.33364,0,908.440233,544.097851,0,323.258358,0,0,0,22,1.8791578,0
2.07,1251.05344,0,910.055516,543.822219,0,322.854796,0,0,0,22,1.87787718,0
2.075,1253.77186,0,911.668783,543.546688,0,322.452082,0,0,0,22,1.87659821,0
2.08,1256.48891,0,913.280039,543.271259,0,322.050214,0,0,0,22,1.87532089,0
2.085,1259.20458,0,914.889288,542.995933,0,321.64919,0,0,0,22,1.87404522,0
2.09,1261.91887,0,916.496533,542.720709,0,321.249009,0,0,0,22,1.87277119,0
2.095,1264.63178,0,918.10178,542.445587,0,320.849669,0,0,0,22,1.87149881,0
2.1,1267.34332,0,919.705032,542.170569,0,320.451166,0,0,0,22,1.87022806,0
2.105,1270.05349,0,921.306294,541.895655,0,320.053501,0,0,0,22,1.86895894,0
2.11,1272.76228,0,922.905569,541.620844,0,319.656671,0,0,0,22,1.86769145,0
2.115,1275.4697,0,924.502862,541.346138,0,319.260673,0,0,0,22,1.86642559,0
2.12,1278.17574,0,926.098178,541.071536,0,318.865506,0,0,0,22,1.86516136,0
2.125,1280.88041,0,927.69152,540.797039,0,318.471169,0,0,0,22,1.86389874,0
2.13,1283.58371,0,929.282892,540.522647,0,318.077659,0,0,0,22,1.86263775,0
2.135,1286.28564,0,930.872298,540.24836,0,317.684974,0,0,0,22,1.86137836,0
2.14,1288.9862,0,932.459743,539.974179,0,317.293113,0,0,0,22,1.86012059,0
2.145,1291.68538,0,934.045231,539.700105,0,316.902074,0,0,0,22,1.85886443,0
2.15,1294.3832,0,935.628766,539.426136,0,316.511854,0,0,0,22,1.85760987,0
2.155,1297.07964,0,937.210352,539.152275,0,316.122453,0,0,0,22,1.85635691,0
2.16,1299.77472,0,938.789993,538.87852,0,315.733868,0,0,0,22,1.85510555,0
2.165,1302.46843,0,940.367693,538.604873,0,315.346097,0,0,0,22,1.85385579,0
2.17,1305.16077,0,941.943456,538.331333,0,314.959138,0,0,0,22,1.85260762,0
2.175,1307.85174,0,943.517286,538.057901,0,314.57299,0,0,0,22,1.85136103,0
2.18,1310.54135,0,945.089188,537.784578,0,314.187651,0,0,0,22,1.85011604,0
2.185,1313.22959,0,946.659165,537.511362,0,313.803119,0,0,0,22,1.84887262,0
2.19,1315.91646,0,948.227221,537.238256,0,313.419392,0,0,0,22,1.84763079,0
2.195,1318.60197,0,949.793361,536.965259,0,313.036469,0,0,0,22,1.84639053,0
2.2,1321.28612,0,951.357588,536.692371,0,312.654347,0,0,0,22,1.84515184,0
2.205,1323.9689,0,952.919906,536.419592,0,312.273025,0,0,0,22,1.84391472,0
2.21,1326.65031,0,954.48032,536.146924,0,311.892501,0,0,0,22,1.84267917,0
2.215,1329.33037,0,956.038833,535.874366,0,311.512773,0,0,0,22,1.84144519,0
2.22,1332.00906,0,957.59545,535.601918,0,311.133839,0,0,0,22,1.84021276,0
2.225,1334.68638,0,959.150173,535.329581,0,310.755698,0,0,0,22,1.83898189,0
2.23,1337.36235,0,960.703009,535.057355,0,310.378348,0,0,0,22,1.83775258,0
2.235,1340.03696,0,962.253959,534.785241,0,310.001787,0,0,0,22,1.83652482,0
2.24,1342.7102,0,963.803028,534.513238,0,309.626013,0,0,0,22,1.83529861,0
2.245,1345.38209,0,965.350221,534.241346,0,309.251024,0,0,0,22,1.83407394,0
2.25,1348.05262,0,966.895541,533.969567,0,308.87682,0,0,0,22,1.83285081,0
2.255,1350.72179,0,968.438991,533.697901,0,308.503397,0,0,0,22,1.83162923,0
2.26,1353.3896,0,969.980577,533.426347,0,308.130754,0,0,0,22,1.83040918,0
2.265,1356.05605,0,971.520301,533.154906,0,307.75889,0,0,0,22,1.82919066,0
2.27,1358.72115,0,973.058167,532.883578,0,307.387802,0,0,0,22,1.82797367,0
2.275,1361.38489,0,974.594181,532.612363,0,307.01749,0,0,0,22,1.82675822,0
2.28,1364.04727,0,976.128344,532.341263,0,306.64795,0,0,0,22,1.82554428,0
2.285,1366.7083,0,977.660662,532.070276,0,306.279182,0,0,0,22,1.82433187,0
2.29,1369.36797,0,979.191138,531.799403,0,305.911184,0,0,0,22,1.82312097,0
2.295,1372.02629,0,980.719776,531.528645,0,305.543954,0,0,0,22,1.82191159,0
2.3,1374.68326,0,982.246579,531.258002,0,305.17749,0,0,0,22,1.82070372,0
2.305,1377.33887,0,983.771553,530.987473,0,304.811791,0,0,0,22,1.81949737,0
2.31,1379.99314,0,985.294699,530.71706,0,304.446854,0,0,0,22,1.81829252,0
2.315,1382.64605,0,986.816023,530.446762,0,304.082679,0,0,0,22,1.81708917,0
2.32,1385.2976,0,988.335528,530.17658,0,303.719263,0,0,0,22,1.81588732,0
2.325,1387.94781,0,989.853218,529.906514,0,303.356604,0,0,0,22,1.81468697,0
2.33,1390.59667,0,991.369096,529.636564,0,302.994702,0,0,0,22,1.81348812,0
2.335,1393.24418,0,992.883166,529.36673,0,302.633554,0,0,0,22,1.81229075,0
2.34,1395.89034,0,994.395433,529.097013,0,302.273159,0,0,0,22,1.81109488,0
2.345,1398.53515,0,995.9059,528.827413,0,301.913514,0,0,0,22,1.80990049,0
2.35,1401.17861,0,997.41457,528.55793,0,301.554619,0,0,0,22,1.80870759,0
2.355,1403.82073,0,998.921448,528.288565,0,301.196471,0,0,0,22,1.80751616,0
2.36,1406.4615,0,1000.42654,528.019317,0,300.83907,0,0,0,22,1.80632621,0
2.365,1409.10092,0,1001.92984,527.750187,0,300.482412,0,0,0,22,1.80513774,0
2.37,1411.739,0,1003.43136,527.481174,0,300.126497,0,0,0,22,1.80395074,0
2.375,1414.37573,0,1004.93111,527.21228,0,299.771323,0,0,0,22,1.80276521,0
2.38,1417.01112,0,1006.42908,526.943505,0,299.416889,0,0,0,22,1.80158114,0
2.385,1419.64517,0,1007.92528,526.674848,0,299.063192,0,0,0,22,1.80039854,0
2.39,1422.27787,0,1009.41971,526.40631,0,298.71023,0,0,0,22,1.79921739,0
2.395,1424.90923,0,1010.91238,526.137891,0,298.358003,0,0,0,22,1.79803771,0
2.4,1427.53925,0,1012.40329,525.869592,0,298.006509,0,0,0,22,1.79685948,0
2.405,1430.16793,0,1013.89245,525.601412,0,297.655746,0,0,0,22,1.7956827,0
2.41,1432.79526,0,1015.37985,525.333352,0,297.305712,0,0,0,22,1.79450737,0
2.415,1435.42126,0,1016.86551,525.065412,0,296.956406,0,0,0,22,1.79333349,0
2.42,1438.04592,0,1018.34942,524.797592,0,296.607826,0,0,0,22,1.79216105,0
2.425,1440.66924,0,1019.83159,524.529892,0,296.25997,0,0,0,22,1.79099005,0
2.43,1443.29122,0,1021.31202,524.262313,0,295.912838,0,0,0,22,1.78982049,0
2.435,1445.91186,0,1022.79072,523.994855,0,295.566426,0,0,0,22,1.78865236,0
2.44,1448.53117,0,1024.26769,523.727518,0,295.220735,0,0,0,22,1.78748566,0
2.445,1451.14914,0,1025.74293,523.460302,0,294.875761,0,0,0,22,1.7863204,0
2.45,1453.76577,0,1027.21645,523.193208,0,294.531504,0,0,0,22,1.78515656,0
2.455,1456.38107,0,1028.68824,522.926235,0,294.187961,0,0,0,22,1.78399415,0
2.46,1458.99503,0,1030.15833,522.659384,0,293.845132,0,0,0,22,1.78283316,0
2.465,1461.60766,0,1031.6267,522.392654,0,293.503015,0,0,0,22,1.78167359,0
2.47,1464.21896,0,1033.09336,522.126048,0,293.161607,0,0,0,22,1.78051543,0
2.475,1466.82892,0,1034.55832,521.859563,0,292.820908,0,0,0,22,1.77935868,0
2.48,1469.43756,0,1036.02157,521.593201,0,292.480916,0,0,0,22,1.77820335,0
2.485,1472.04486,0,1037.48313,521.326962,0,292.141629,0,0,0,22,1.77704943,0
2.49,1474.65083,0,1038.94299,521.060846,0,291.803046,0,0,0,22,1.77589691,0
2.495,1477.25547,0,1040.40116,520.794853,0,291.465166,0,0,0,22,1.77474579,0
2.5,1479.85877,0,1041.85764,520.528983,0,291.127985,0,0,0,22,1.77359607,0
2.505,1482.46076,0,1043.31244,520.263237,0,290.791504,0,0,0,22,1.77244775,0
2.51,1485.06141,0,1044.76556,519.997614,0,290.455721,0,0,0,22,1.77130082,0
2.515,1487.66073,0,1046.217,519.732115,0,290.120633,0,0,0,22,1.77015529,0
2.52,1490.25873,0,1047.66677,519.466741,0,289.78624,0,0,0,22,1.76901114,0
2.525,1492.8554,0,1049.11486,519.20149,0,289.452539,0,0,0,22,1.76786838,0
2.53,1495.45074,0,1050.56129,518.936364,0,289.11953,0,0,0,22,1.76672701,0
2.535,1498.04476,0,1052.00606,518.671363,0,288.787211,0,0,0,22,1.76558702,0
2.54,1500.63746,0,1053.44917,518.406486,0,288.45558,0,0,0,22,1.7644484,0
2.545,1503.22883,0,1054.89062,518.141734,0,288.124636,0,0,0,22,1.76331116,0
2.55,1505.81888,0,1056.33042,517.877108,0,287.794376,0,0,0,22,1.7621753,0
2.555,1508.4076,0,1057.76856,517.612606,0,287.464801,0,0,0,22,1.7610408,0
2.56,1510.995,0,1059.20506,517.34823,0,287.135908,0,0,0,22,1.75990768,0
2.565,1513.58108,0,1060.63992,517.08398,0,286.807695,0,0,0,22,1.75877592,0
2.57,1516.16584,0,1062.07314,516.819855,0,286.480161,0,0,0,22,1.75764552,0
2.575,1518.74928,0,1063.50473,516.555856,0,286.153305,0,0,0,22,1.75651648,0
2.58,1521.3314,0,1064.93468,516.291984,0,285.827125,0,0,0,22,1.7553888,0
2.585,1523.9122,0,1066.363,516.028237,0,285.50162,0,0,0,22,1.75426248,0
2.59,1526.49168,0,1067.7897,515.764617,0,285.176788,0,0,0,22,1.75313751,0
2.595,1529.06985,0,1069.21477,515.501124,0,284.852627,0,0,0,22,1.75201389,0
2.6,1531.6467,0,1070.63822,515.237757,0,284.529136,0,0,0,22,1.75089161,0
2.605,1534.22223,0,1072.06006,514.974517,0,284.206314,0,0,0,22,1.74977069,0
2.61,1536.79644,0,1073.48029,514.711404,0,283.88416,0,0,0,22,1.7486511,0
2.615,1539.36934,0,1074.89891,514.448418,0,283.562671,0,0,0,22,1.74753286,0
2.62,1541.94093,0,1076.31592,514.18556,0,283.241846,0,0,0,22,1.74641595,0
2.625,1544.5112,0,1077.73133,513.922829,0,282.921684,0,0,0,22,1.74530038,0
2.63,1547.08015,0,1079.14514,513.660226,0,282.602183,0,0,0,22,1.74418614,0
2.635,1549.6478,0,1080.55735,513.39775,0,282.283341,0,0,0,22,1.74307323,0
2.64,1552.21413,0,1081.96797,513.135402,0,281.965159,0,0,0,22,1.74196164,0
2.645,1554.77915,0,1083.377,512.873183,0,281.647633,0,0,0,22,1.74085139,0
2.65,1557.34286,0,1084.78445,512.611091,0,281.330762,0,0,0,22,1.73974245,0
2.655,1559.90526,0,1086.19031,512.349128,0,281.014546,0,0,0,22,1.73863484,0
2.66,1562.46636,0,1087.5946,512.087294,0,280.698981,0,0,0,22,1.73752854,0
2.665,1565.02614,0,1088.9973,511.825588,0,280.384068,0,0,0,22,1.73642356,0
2.67,1567.58461,0,1090.39844,511.564011,0,280.069805,0,0,0,22,1.73531989,0
2.675,1570.14178,0,1091.798,511.302563,0,279.75619,0,0,0,22,1.73421753,0
2.68,1572.69764,0,1093.196,511.041243,0,279.443221,0,0,0,22,1.73311648,0
2.685,1575.25219,0,1094.59244,510.780053,0,279.130898,0,0,0,22,1.73201674,0
2.69,1577.80544,0,1095.98731,510.518993,0,278.819219,0,0,0,22,1.7309183,0
2.695,1580.35738,0,1097.38063,510.258061,0,278.508182,0,0,0,22,1.72982115,0
2.7,1582.90802,0,1098.7724,509.99726,0,278.197787,0,0,0,22,1.72872531,0
2.705,1585.45735,0,1100.16261,509.736588,0,277.888031,0,0,0,22,1.72763076,0
2.71,1588.00539,0,1101.55128,509.476045,0,277.578913,0,0,0,22,1.72653751,0
2.715,1590.55211,0,1102.9384,509.215633,0,277.270432,0,0,0,22,1.72544555,0
2.72,1593.09754,0,1104.32398,508.955351,0,276.962587,0,0,0,22,1.72435487,0
2.725,1595.64167,0,1105.70803,508.695199,0,276.655375,0,0,0,22,1.72326548,0
2.73,1598.18449,0,1107.09054,508.435177,0,276.348796,0,0,0,22,1.72217738,0
2.735,1600.72602,0,1108.47152,508.175286,0,276.042848,0,0,0,22,1.72109055,0
2.74,1603.26625,0,1109.85097,507.915525,0,275.737531,0,0,0,22,1.72000501,0
2.745,1605.80518,0,1111.22889,507.655895,0,275.432841,0,0,0,22,1.71892074,0
2.75,1608.34281,0,1112.6053,507.396396,0,275.128779,0,0,0,22,1.71783775,0
2.755,1610.87914,0,1113.98018,507.137028,0,274.825342,0,0,0,22,1.71675603,0
2.76,1613.41418,0,1115.35355,506.877791,0,274.52253,0,0,0,22,1.71567558,0
2.765,1615.94792,0,1116.72541,506.618685,0,274.22034,0,0,0,22,1.71459639,0
2.77,1618.48036,0,1118.09576,506.35971,0,273.918772,0,0,0,22,1.71351847,0
2.775,1621.01152,0,1119.4646,506.100866,0,273.617825,0,0,0,22,1.71244181,0
2.78,1623.54137,0,1120.83194,505.842155,0,273.317496,0,0,0,22,1.71136642,0
2.785,1626.06994,0,1122.19778,505.583574,0,273.017784,0,0,0,22,1.71029228,0
2.79,1628.59721,0,1123.56212,505.325126,0,272.718689,0,0,0,22,1.7092194,0
2.795,1631.12319,0,1124.92497,505.066809,0,272.420208,0,0,0,22,1.70814777,0
2.8,1633.64788,0,1126.28632,504.808624,0,272.122341,0,0,0,22,1.70707739,0
2.805,1636.17128,0,1127.64619,504.550571,0,271.825086,0,0,0,22,1.70600826,0
2.81,1638.69338,0,1129.00457,504.292651,0,271.528442,0,0,0,22,1.70494037,0
2.815,1641.2142,0,1130.36148,504.034862,0,271.232406,0,0,0,22,1.70387373,0
2.82,1643.73373,0,1131.7169,503.777206,0,270.936979,0,0,0,22,1.70280834,0
2.825,1646.25198,0,1133.07085,503.519683,0,270.642159,0,0,0,22,1.70174418,0
2.83,1648.76893,0,1134.42332,503.262292,0,270.347944,0,0,0,22,1.70068126,0
2.835,1651.2846,0,1135.77433,503.005033,0,270.054333,0,0,0,22,1.69961957,0
2.84,1653.79898,0,1137.12387,502.747908,0,269.761324,0,0,0,22,1.69855912,0
2.845,1656.31208,0,1138.47194,502.490915,0,269.468917,0,0,0,22,1.6974999,0
2.85,1658.82389,0,1139.81856,502.234055,0,269.17711,0,0,0,22,1.6964419,0
2.855,1661.33442,0,1141.16372,501.977328,0,268.885902,0,0,0,22,1.69538514,0
2.86,1663.84366,0,1142.50742,501.720735,0,268.595291,0,0,0,22,1.69432959,0
2.865,1666.35163,0,1143.84967,501.464274,0,268.305277,0,0,0,22,1.69327527,0
2.87,1668.85831,0,1145.19047,501.207947,0,268.015857,0,0,0,22,1.69222217,0
2.875,1671.36371,0,1146.52983,500.951754,0,267.727031,0,0,0,22,1.69117028,0
2.88,1673.86783,0,1147.86774,500.695694,0,267.438796,0,0,0,22,1.69011961,0
2.885,1676.37066,0,1149.20422,500.439767,0,267.151153,0,0,0,22,1.68907015,0
2.89,1678.87222,0,1150.53926,500.183974,0,266.8641,0,0,0,22,1.68802191,0
2.895,1681.3725,0,1151.87286,499.928315,0,266.577634,0,0,0,22,1.68697487,0
2.9,1683.87151,0,1153.20504,499.67279,0,266.291756,0,0,0,22,1.68592904,0
2.905,1686.36923,0,1154.53578,499.417399,0,266.006464,0,0,0,22,1.68488441,0
2.91,1688.86568,0,1155.8651,499.162142,0,265.721756,0,0,0,22,1.68384098,0
2.915,1691.36085,0,1157.193,498.907018,0,265.437631,0,0,0,22,1.68279876,0
2.92,1693.85475,0,1158.51948,498.65203,0,265.154088,0,0,0,22,1.68175773,0
2.925,1696.34737,0,1159.84454,498.397175,0,264.871126,0,0,0,22,1.68071789,0
2.93,1698.83872,0,1161.16819,498.142455,0,264.588743,0,0,0,22,1.67967925,0
2.935,1701.3288,0,1162.49043,497.887869,0,264.306938,0,0,0,22,1.6786418,0
2.94,1703.8176,0,1163.81126,497.633418,0,264.02571,0,0,0,22,1.67760554,0
2.945,1706.30513,0,1165.13069,497.379101,0,263.745058,0,0,0,22,1.67657047,0
2.95,1708.79139,0,1166.44871,497.124919,0,263.46498,0,0,0,22,1.67553658,0
2.955,1711.27638,0,1167.76534,496.870871,0,263.185475,0,0,0,22,1.67450387,0
2.96,1713.7601,0,1169.08057,496.616959,0,262.906542,0,0,0,22,1.67347235,0
2.965,1716.24255,0,1170.39441,496.363181,0,262.628179,0,0,0,22,1.672442,0
2.97,1718.72374,0,1171.70685,496.109539,0,262.350386,0,0,0,22,1.67141283,0
2.975,1721.20365,0,1173.01791,495.856031,0,262.073161,0,0,0,22,1.67038483,0
2.98,1723.6823,0,1174.32759,495.602659,0,261.796503,0,0,0,22,1.669358,0
2.985,1726.15968,0,1175.63588,495.349422,0,261.52041,0,0,0,22,1.66833235,0
2.99,1728.63579,0,1176.94279,495.09632,0,261.244882,0,0,0,22,1.66730786,0
2.995,1731.11064,0,1178.24833,494.843353,0,260.969917,0,0,0,22,1.66628454,0
3,1733.58422,0,1179.55249,494.590522,0,260.695514,0,0,0,22,1.66526238,0
3.005,1736.05655,0,1180.85529,494.337826,0,260.421671,0,0,0,22,1.66424138,0
3.01,1738.5276,0,1182.15671,494.085266,0,260.148389,0,0,0,22,1.66322154,0
3.015,1740.9974,0,1183.45677,493.832841,0,259.875664,0,0,0,22,1.66220286,0
3.02,1743.46593,0,1184.75547,493.580552,0,259.603496,0,0,0,22,1.66118534,0
3.025,1745.9332,0,1186.05281,493.328399,0,259.331885,0,0,0,22,1.66016897,0
3.03,1748.39922,0,1187.34879,493.076381,0,259.060828,0,0,0,22,1.65915375,0
3.035,1750.86397,0,1188.64342,492.8245,0,258.790324,0,0,0,22,1.65813967,0
3.04,1753.32746,0,1189.93669,492.572754,0,258.520373,0,0,0,22,1.65712675,0
3.045,1755.7897,0,1191.22862,492.321144,0,258.250972,0,0,0,22,1.65611497,0
3.05,1758.25067,0,1192.51921,492.06967,0,257.982122,0,0,0,22,1.65510433,0
3.055,1760.71039,0,1193.80845,491.818333,0,257.71382,0,0,0,22,1.65409484,0
3.06,1763.16886,0,1195.09635,491.567131,0,257.446066,0,0,0,22,1.65308648,0
3.065,1765.62606,0,1196.38291,491.316066,0,257.178858,0,0,0,22,1.65207926,0
3.07,1768.08202,0,1197.66814,491.065137,0,256.912195,0,0,0,22,1.65107318,0
3.075,1770.53672,0,1198.95203,490.814344,0,256.646076,0,0,0,22,1.65006823,0
3.08,1772.99016,0,1200.2346,490.563687,0,256.380499,0,0,0,22,1.64906441,0
3.085,1775.44235,0,1201.51584,490.313167,0,256.115464,0,0,0,22,1.64806172,0
3.09,1777.89329,0,1202.79575,490.062784,0,255.85097,0,0,0,22,1.64706015,0
3.095,1780.34298,0,1204.07435,489.812537,0,255.587015,0,0,0,22,1.64605971,0
3.1,1782.79142,0,1205.35162,489.562426,0,255.323597,0,0,0,22,1.6450604,0
3.105,1785.23861,0,1206.62759,489.312452,0,255.060717,0,0,0,22,1.6440622,0
3.11,1787.68454,0,1207.90223,489.062615,0,254.798372,0,0,0,22,1.64306512,0
3.115,1790.12923,0,1209.17557,488.812915,0,254.536562,0,0,0,22,1.64206916,0
3.12,1792.57267,0,1210.4476,488.563351,0,254.275285,0,0,0,22,1.64107432,0
3.125,1795.01487,0,1211.71832,488.313924,0,254.014541,0,0,0,22,1.64008059,0
3.13,1797.45581,0,1212.98775,488.064634,0,253.754327,0,0,0,22,1.63908797,0
3.135,1799.89551,0,1214.25587,487.815481,0,253.494644,0,0,0,22,1.63809646,0
3.14,1802.33397,0,1215.52269,487.566465,0,253.235489,0,0,0,22,1.63710606,0
3.145,1804.77118,0,1216.78823,487.317585,0,252.976862,0,0,0,22,1.63611676,0
3.15,1807.20714,0,1218.05246,487.068843,0,252.718762,0,0,0,22,1.63512856,0
3.155,1809.64187,0,1219.31541,486.820238,0,252.461187,0,0,0,22,1.63414147,0
3.16,1812.07535,0,1220.57708,486.57177,0,252.204136,0,0,0,22,1.63315548,0
3.165,1814.50759,0,1221.83746,486.323439,0,251.947608,0,0,0,22,1.63217058,0
3.17,1816.93858,0,1223.09656,486.075245,0,251.691602,0,0,0,22,1.63118678,0
3.175,1819.36834,0,1224.35437,485.827189,0,251.436117,0,0,0,22,1.63020408,0
3.18,1821.79685,0,1225.61092,485.57927,0,251.181152,0,0,0,22,1.62922246,0
3.185,1824.22413,0,1226.86619,485.331488,0,250.926705,0,0,0,22,1.62824194,0
3.19,1826.65017,0,1228.12019,485.083843,0,250.672776,0,0,0,22,1.6272625,0
3.195,1829.07497,0,1229.37292,484.836336,0,250.419364,0,0,0,22,1.62628416,0
3.2,1831.49853,0,1230.62438,484.588967,0,250.166466,0,0,0,22,1.62530689,0
3.205,1833.92086,0,1231.87458,484.341734,0,249.914083,0,0,0,22,1.62433071,0
3.21,1836.34195,0,1233.12352,484.09464,0,249.662212,0,0,0,22,1.62335561,0
3.215,1838.76181,0,1234.37121,483.847682,0,249.410854,0,0,0,22,1.62238158,0
3.22,1841.18043,0,1235.61763,483.600863,0,249.160007,0,0,0,22,1.62140864,0
3.225,1843.59782,0,1236.86281,483.35418,0,248.909669,0,0,0,22,1.62043677,0
3.23,1846.01397,0,1238.10673,483.107636,0,248.65984,0,0,0,22,1.61946597,0
3.235,1848.42889,0,1239.34941,482.861229,0,248.410518,0,0,0,22,1.61849624,0
3.24,1850.84258,0,1240.59084,482.61496,0,248.161703,0,0,0,22,1.61752758,0
3.245,1853.25504,0,1241.83102,482.368828,0,247.913393,0,0,0,22,1.61655999,0
3.25,1855.66627,0,1243.06997,482.122834,0,247.665588,0,0,0,22,1.61559347,0
3.255,1858.07627,0,1244.30768,481.876978,0,247.418286,0,0,0,22,1.61462801,0
3.26,1860.48504,0,1245.54416,481.63126,0,247.171486,0,0,0,22,1.61366361,0
3.265,1862.89258,0,1246.7794,481.38568,0,246.925187,0,0,0,22,1.61270027,0
3.27,1865.2989,0,1248.01341,481.140237,0,246.679388,0,0,0,22,1.61173799,0
3.275,1867.70399,0,1249.24619,480.894932,0,246.434087,0,0,0,22,1.61077677,0
3.28,1870.10785,0,1250.47775,480.649765,0,246.189285,0,0,0,22,1.6098166,0
3.285,1872.51048,0,1251.70809,480.404737,0,245.944979,0,0,0,22,1.60885749,0
3.29,1874.9119,0,1252.9372,480.159845,0,245.70117,0,0,0,22,1.60789943,0
3.295,1877.31208,0,1254.1651,479.915092,0,245.457854,0,0,0,22,1.60694241,0
3.3,1879.71105,0,1255.39178,479.670477,0,245.215033,0,0,0,22,1.60598644,0
3.305,1882.10879,0,1256.61725,479.426,0,244.972703,0,0,0,22,1.60503152,0
3.31,1884.50531,0,1257.84151,479.181661,0,244.730866,0,0,0,22,1.60407765,0
3.315,1886.90061,0,1259.06456,478.93746,0,244.489518,0,0,0,22,1.60312481,0
3.32,1889.29468,0,1260.28641,478.693397,0,244.248661,0,0,0,22,1.60217302,0
3.325,1891.68754,0,1261.50705,478.449472,0,244.008291,0,0,0,22,1.60122226,0
3.33,1894.07918,0,1262.72649,478.205685,0,243.768409,0,0,0,22,1.60027254,0
3.335,1896.4696,0,1263.94473,477.962036,0,243.529012,0,0,0,22,1.59932386,0
3.34,1898.8588,0,1265.16178,477.718526,0,243.290102,0,0,0,22,1.59837621,0
3.345,1901.24678,0,1266.37764,477.475153,0,243.051675,0,0,0,22,1.59742959,0
3.35,1903.63355,0,1267.5923,477.231919,0,242.813731,0,0,0,22,1.596484,0
3.355,1906.0191,0,1268.80578,476.988823,0,242.57627,0,0,0,22,1.59553944,0
3.36,1908.40344,0,1270.01806,476.745865,0,242.339289,0,0,0,22,1.59459591,0
3.365,1910.78656,0,1271.22917,476.503045,0,242.102789,0,0,0,22,1.5936534,0
3.37,1913.16847,0,1272.43909,476.260363,0,241.866767,0,0,0,22,1.59271191,0
3.375,1915.54916,0,1273.64784,476.01782,0,241.631224,0,0,0,22,1.59177144,0
3.38,1917.92865,0,1274.85541,475.775414,0,241.396157,0,0,0,22,1.590832,0
3.385,1920.30692,0,1276.0618,475.533147,0,241.161567,0,0,0,22,1.58989357,0
3.39,1922.68398,0,1277.26702,475.291019,0,240.927451,0,0,0,22,1.58895615,0
3.395,1925.05983,0,1278.47108,475.049028,0,240.693809,0,0,0,22,1.58801975,0
3.4,1927.43447,0,1279.67396,474.807176,0,240.46064,0,0,0,22,1.58708437,0
3.405,1929.8079,0,1280.87568,474.565462,0,240.227944,0,0,0,22,1.58614999,0
3.41,1932.18013,0,1282.07624,474.323886,0,239.995718,0,0,0,22,1.58521663,0
3.415,1934.55114,0,1283.27564,474.082449,0,239.763962,0,0,0,22,1.58428427,0
3.42,1936.92095,0,1284.47388,473.84115,0,239.532674,0,0,0,22,1.58335291,0
3.425,1939.28955,0,1285.67097,473.599989,0,239.301855,0,0,0,22,1.58242257,0
3.43,1941.65695,0,1286.8669,473.358967,0,239.071503,0,0,0,22,1.58149322,0
3.435,1944.02314,0,1288.06169,473.118083,0,238.841616,0,0,0,22,1.58056487,0
3.44,1946.38813,0,1289.25532,472.877337,0,238.612195,0,0,0,22,1.57963752,0
3.445,1948.75192,0,1290.44781,472.636729,0,238.383237,0,0,0,22,1.57871117,0
3.45,1951.1145,0,1291.63916,472.39626,0,238.154742,0,0,0,22,1.57778582,0
3.455,1953.47588,0,1292.82936,472.155929,0,237.92671,0,0,0,22,1.57686146,0
3.46,1955.83606,0,1294.01842,471.915736,0,237.699138,0,0,0,22,1.57593809,0
3.465,1958.19504,0,1295.20635,471.675682,0,237.472026,0,0,0,22,1.57501571,0
3.47,1960.55282,0,1296.39314,471.435766,0,237.245374,0,0,0,22,1.57409432,0
3.475,1962.9094,0,1297.57881,471.195989,0,237.019179,0,0,0,22,1.57317392,0
3.48,1965.26478,0,1298.76334,470.956349,0,236.793442,0,0,0,22,1.57225451,0
3.485,1967.61896,0,1299.94674,470.716848,0,236.56816,0,0,0,22,1.57133607,0
3.49,1969.97195,0,1301.12902,470.477486,0,236.343334,0,0,0,22,1.57041863,0
3.495,1972.32373,0,1302.31018,470.238261,0,236.118962,0,0,0,22,1.56950216,0
3.5,1974.67433,0,1303.49021,469.999175,0,235.895043,0,0,0,22,1.56858667,0
3.505,1977.02373,0,1304.66913,469.760228,0,235.671576,0,0,0,22,1.56767215,0
3.51,1979.37193,0,1305.84693,469.521418,0,235.448561,0,0,0,22,1.56675862,0
3.515,1981.71894,0,1307.02361,469.282747,0,235.225996,0,0,0,22,1.56584606,0
3.52,1984.06476,0,1308.19919,469.044214,0,235.003881,0,0,0,22,1.56493447,0
3.525,1986.40938,0,1309.37365,468.80582,0,234.782214,0,0,0,22,1.56402385,0
3.53,1988.75282,0,1310.54701,468.567564,0,234.560994,0,0,0,22,1.5631142,0
3.535,1991.09506,0,1311.71927,468.329446,0,234.340221,0,0,0,22,1.56220552,0
3.54,1993.43611,0,1312.89042,468.091466,0,234.119894,0,0,0,22,1.5612978,0
3.545,1995.77597,0,1314.06047,467.853625,0,233.900011,0,0,0,22,1.56039105,0
3.55,1998.11465,0,1315.22942,467.615922,0,233.680572,0,0,0,22,1.55948526,0
3.555,2000.45213,0,1316.39727,467.378357,0,233.461576,0,0,0,22,1.55858043,0
3.56,2002.78843,0,1317.56403,467.14093,0,233.243022,0,0,0,22,1.55767657,0
3.565,2005.12354,0,1318.7297,466.903642,0,233.024908,0,0,0,22,1.55677366,0
3.57,2007.45747,0,1319.89428,466.666492,0,232.807235,0,0,0,22,1.55587171,0
3.575,2009.79021,0,1321.05778,466.42948,0,232.590001,0,0,0,22,1.55497071,0
3.58,2012.12176,0,1322.22019,466.192606,0,232.373204,0,0,0,22,1.55407067,0
3.585,2014.45214,0,1323.38151,465.95587,0,232.156846,0,0,0,22,1.55317157,0
3.59,2016.78132,0,1324.54175,465.719273,0,231.940923,0,0,0,22,1.55227343,0
3.595,2019.10933,0,1325.70092,465.482814,0,231.725436,0,0,0,22,1.55137624,0
3.6,2021.43615,0,1326.85901,465.246493,0,231.510383,0,0,0,22,1.55048,0
3.605,2023.76179,0,1328.01603,465.01031,0,231.295764,0,0,0,22,1.5495847,0
3.61,2026.08626,0,1329.17197,464.774265,0,231.081577,0,0,0,22,1.54869034,0
3.615,2028.40954,0,1330.32684,464.538358,0,230.867822,0,0,0,22,1.54779693,0
3.62,2030.73164,0,1331.48065,464.30259,0,230.654498,0,0,0,22,1.54690445,0
3.625,2033.05256,0,1332.63339,464.066959,0,230.441604,0,0,0,22,1.54601292,0
3.63,2035.37231,0,1333.78507,463.831467,0,230.229139,0,0,0,22,1.54512233,0
3.635,2037.69088,0,1334.93568,463.596113,0,230.017102,0,0,0,22,1.54423267,0
3.64,2040.00827,0,1336.08524,463.360896,0,229.805492,0,0,0,22,1.54334394,0
3.645,2042.32449,0,1337.23374,463.125818,0,229.594309,0,0,0,22,1.54245615,0
3.65,2044.63953,0,1338.38118,462.890878,0,229.383551,0,0,0,22,1.5415693,0
3.655,2046.9534,0,1339.52757,462.656075,0,229.173217,0,0,0,22,1.54068337,0
3.66,2049.26609,0,1340.67291,462.421411,0,228.963307,0,0,0,22,1.53979837,0
3.665,2051.57761,0,1341.81721,462.186885,0,228.75382,0,0,0,22,1.5389143,0
3.67,2053.88796,0,1342.96045,461.952496,0,228.544755,0,0,0,22,1.53803115,0
3.675,2056.19714,0,1344.10266,461.718246,0,228.336111,0,0,0,22,1.53714893,0
3.68,2058.50514,0,1345.24382,461.484133,0,228.127887,0,0,0,22,1.53626763,0
3.685,2060.81198,0,1346.38394,461.250158,0,227.920082,0,0,0,22,1.53538725,0
3.69,2063.11764,0,1347.52302,461.016321,0,227.712695,0,0,0,22,1.53450779,0
3.695,2065.42214,0,1348.66106,460.782622,0,227.505726,0,0,0,22,1.53362925,0
3.7,2067.72547,0,1349.79808,460.549061,0,227.299173,0,0,0,22,1.53275163,0
3.705,2070.02763,0,1350.93406,460.315637,0,227.093037,0,0,0,22,1.53187492,0
3.71,2072.32863,0,1352.06901,460.082351,0,226.887315,0,0,0,22,1.53099913,0
3.715,2074.62846,0,1353.20293,459.849203,0,226.682007,0,0,0,22,1.53012424,0
3.72,2076.92712,0,1354.33583,459.616193,0,226.477112,0,0,0,22,1.52925027,0
3.725,2079.22462,0,1355.4677,459.38332,0,226.272629,0,0,0,22,1.52837721,0
3.73,2081.52095,0,1356.59856,459.150585,0,226.068558,0,0,0,22,1.52750506,0
3.735,2083.81612,0,1357.72839,458.917988,0,225.864897,0,0,0,22,1.52663381,0
3.74,2086.11013,0,1358.85721,458.685528,0,225.661646,0,0,0,22,1.52576347,0
3.745,2088.40298,0,1359.98501,458.453206,0,225.458804,0,0,0,22,1.52489403,0
3.75,2090.69467,0,1361.1118,458.221021,0,225.25637,0,0,0,22,1.52402549,0
3.755,2092.98519,0,1362.23757,457.988974,0,225.054342,0,0,0,22,1.52315786,0
3.76,2095.27456,0,1363.36234,457.757064,0,224.852722,0,0,0,22,1.52229112,0
3.765,2097.56276,0,1364.4861,457.525292,0,224.651506,0,0,0,22,1.52142528,0
3.77,2099.84981,0,1365.60886,457.293658,0,224.450695,0,0,0,22,1.52056034,0
3.775,2102.1357,0,1366.73061,457.06216,0,224.250288,0,0,0,22,1.51969629,0
3.78,2104.42043,0,1367.85136,456.8308,0,224.050284,0,0,0,22,1.51883314,0
3.785,2106.70401,0,1368.97111,456.599578,0,223.850682,0,0,0,22,1.51797087,0
3.79,2108.98643,0,1370.08987,456.368493,0,223.651481,0,0,0,22,1.5171095,0
3.795,2111.26769,0,1371.20763,456.137545,0,223.45268,0,0,0,22,1.51624902,0
3.8,2113.5478,0,1372.3244,455.906734,0,223.254279,0,0,0,22,1.51538942,0
3.805,2115.82676,0,1373.44017,455.676061,0,223.056277,0,0,0,22,1.51453072,0
3.81,2118.10456,0,1374.55496,455.445525,0,222.858673,0,0,0,22,1.51367289,0
3.815,2120.38122,0,1375.66876,455.215126,0,222.661465,0,0,0,22,1.51281595,0
3.82,2122.65672,0,1376.78157,454.984864,0,222.464654,0,0,0,22,1.51195989,0
3.825,2124.93106,0,1377.89341,454.754739,0,222.268238,0,0,0,22,1.51110472,0
3.83,2127.20426,0,1379.00426,454.524752,0,222.072217,0,0,0,22,1.51025042,0
3.835,2129.47631,0,1380.11413,454.294901,0,221.87659,0,0,0,22,1.509397,0
3.84,2131.74721,0,1381.22302,454.065188,0,221.681356,0,0,0,22,1.50854445,0
3.845,2134.01696,0,1382.33094,453.835611,0,221.486514,0,0,0,22,1.50769279,0
3.85,2136.28557,0,1383.43789,453.606172,0,221.292063,0,0,0,22,1.50684199,0
3.855,2138.55303,0,1384.54387,453.376869,0,221.098002,0,0,0,22,1.50599207,0
3.86,2140.81934,0,1385.64887,453.147703,0,220.904332,0,0,0,22,1.50514302,0
3.865,2143.0845,0,1386.75291,452.918674,0,220.71105,0,0,0,22,1.50429483,0
3.87,2145.34853,0,1387.85598,452.689782,0,220.518156,0,0,0,22,1.50344752,0
3.875,2147.6114,0,1388.95809,452.461027,0,220.32565,0,0,0,22,1.50260107,0
3.88,2149.87314,0,1390.05924,452.232408,0,220.13353,0,0,0,22,1.50175549,0
3.885,2152.13373,0,1391.15943,452.003926,0,219.941796,0,0,0,22,1.50091077,0
3.89,2154.39318,0,1392.25866,451.775581,0,219.750447,0,0,0,22,1.50006692,0
3.895,2156.65148,0,1393.35693,451.547373,0,219.559482,0,0,0,22,1.49922393,0
3.9,2158.90865,0,1394.45426,451.319232,0,219.368867,0,0,0,22,1.49838156,0
3.905,2161.16468,0,1395.55062,451.091154,0,219.178598,0,0,0,22,1.49753982,0
3.91,2163.41956,0,1396.64604,450.863139,0,218.988676,0,0,0,22,1.49669868,0
3.915,2165.67331,0,1397.74051,450.635187,0,218.799098,0,0,0,22,1.49585816,0
3.92,2167.92591,0,1398.83403,450.407298,0,218.609866,0,0,0,22,1.49501825,0
3.925,2170.17738,0,1399.92661,450.179472,0,218.420978,0,0,0,22,1.49417895,0
3.93,2172.42771,0,1401.01824,449.951711,0,218.232433,0,0,0,22,1.49334026,0
3.935,2174.6769,0,1402.10894,449.724013,0,218.044232,0,0,0,22,1.49250218,0
3.94,2176.92495,0,1403.19869,449.496379,0,217.856372,0,0,0,22,1.49166471,0
3.945,2179.17186,0,1404.2875,449.26881,0,217.668855,0,0,0,22,1.49082785,0
3.95,2181.41764,0,1405.37538,449.041305,0,217.481679,0,0,0,22,1.4899916,0
3.955,2183.66227,0,1406.46232,448.813865,0,217.294843,0,0,0,22,1.48915597,0
3.96,2185.90578,0,1407.54833,448.586491,0,217.108348,0,0,0,22,1.48832094,0
3.965,2188.14814,0,1408.6334,448.359181,0,216.922192,0,0,0,22,1.48748651,0
3.97,2190.38937,0,1409.71755,448.131938,0,216.736375,0,0,0,22,1.4866527,0
3.975,2192.62946,0,1410.80077,447.90476,0,216.550896,0,0,0,22,1.48581949,0
3.98,2194.86842,0,1411.88306,447.677648,0,216.365755,0,0,0,22,1.4849869,0
3.985,2197.10624,0,1412.96443,447.450602,0,216.180951,0,0,0,22,1.4841549,0
3.99,2199.34292,0,1414.04487,447.223623,0,215.996484,0,0,0,22,1.48332352,0
3.995,2201.57847,0,1415.12439,446.99671,0,215.812353,0,0,0,22,1.48249274,0
